City,Lat,Lng,Max Temp,Humidity,Cloudiness,Wind Speed,Country,Date
puerto ayora,-0.74,-90.35,84.2,51,0,19.46,EC,1609363764
tasiilaq,65.61,-37.64,15.8,61,3,5.82,GL,1609363765
portobelo,9.55,-79.65,82.0,80,34,8.99,PA,1609363766
matias olimpio,-3.72,-42.56,84.6,55,94,5.12,BR,1609363767
tobe,33.74,132.79,35.01,55,100,8.01,JP,1609363769
tilichiki,60.47,166.1,1.98,95,97,14.34,RU,1609363770
ponta do sol,32.67,-17.1,57.2,87,75,14.99,PT,1609363771
cape town,-33.93,18.42,68.0,68,0,4.7,ZA,1609363504
griffith,41.53,-87.42,32.0,80,90,19.46,US,1609363773
hobart,-42.88,147.33,55.99,82,75,6.93,AU,1609363775
husavik,66.04,-17.34,19.4,79,90,6.93,IS,1609363776
yellowknife,62.46,-114.35,-2.0,83,75,3.33,CA,1609363777
hithadhoo,-0.6,73.08,82.36,76,49,8.68,MV,1609363778
severo-kurilsk,50.68,156.12,20.86,87,31,4.29,RU,1609363780
chimbote,-9.09,-78.58,72.66,74,66,10.16,PE,1609363781
mataura,-46.19,168.86,60.21,77,98,1.05,NZ,1609363782
grand gaube,-20.01,57.66,75.0,88,25,5.01,MU,1609363783
bambanglipuro,-7.95,110.28,74.46,95,100,12.08,ID,1609363785
palmas de monte alto,-14.27,-43.16,80.94,45,0,5.39,BR,1609363786
kodiak,57.79,-152.41,37.4,74,90,9.17,US,1609363787
hami,42.8,93.45,13.35,71,1,2.95,CN,1609363788
barrow,71.29,-156.79,-9.4,69,20,16.11,US,1609363790
nyurba,63.28,118.33,-15.61,87,100,7.29,RU,1609363791
asau,46.43,26.4,43.0,100,40,16.11,RO,1609363792
chuy,-33.7,-53.46,71.37,90,97,4.07,UY,1609363793
hermanus,-34.42,19.23,64.0,81,2,11.77,ZA,1609363794
altus,34.64,-99.33,42.8,52,75,13.87,US,1609363586
vao,-22.67,167.48,77.97,83,100,27.13,NC,1609363797
vangaindrano,-23.35,47.6,73.98,88,10,6.13,MG,1609363798
busselton,-33.65,115.33,71.01,52,0,4.0,AU,1609363799
bluff,-46.6,168.33,55.81,84,99,2.89,NZ,1609363801
cururupu,-1.83,-44.87,76.21,92,96,3.09,BR,1609363802
rikitea,-23.12,-134.97,78.3,76,0,11.92,PF,1609363803
east london,-33.02,27.91,70.05,81,72,8.39,ZA,1609363805
dikson,73.51,80.55,-21.06,84,4,7.09,RU,1609363807
florence,43.77,11.25,37.4,93,20,2.24,IT,1609363808
saint anthony,45.02,-93.22,24.8,67,40,13.87,US,1609363809
tual,-5.67,132.75,84.2,75,100,10.96,ID,1609363810
labuan,5.28,115.24,77.0,94,20,6.96,MY,1609363812
kapaa,22.08,-159.32,80.6,65,75,18.34,US,1609363813
tambovka,50.1,128.05,-14.8,62,0,6.71,RU,1609363814
alofi,-19.06,-169.92,80.6,88,75,8.05,NU,1609363816
ahipara,-35.17,173.17,69.46,50,63,4.68,NZ,1609363817
lensk,60.73,114.93,-20.24,83,100,9.37,RU,1609363818
albany,42.6,-73.97,35.01,41,95,3.0,US,1609363803
kirakira,-10.45,161.92,84.29,72,89,8.77,SB,1609363821
shibetsu,43.66,145.13,15.93,90,55,12.84,JP,1609363822
ribeira grande,38.52,-28.7,57.2,71,20,13.87,PT,1609363823
hasaki,35.73,140.83,32.0,65,20,11.41,JP,1609363682
pevek,69.7,170.31,-10.3,90,100,14.72,RU,1609363826
upernavik,72.79,-56.15,22.89,89,100,8.84,GL,1609363827
puerto leguizamo,-0.19,-74.78,87.85,59,94,2.15,CO,1609363828
dunedin,-45.87,170.5,60.12,78,100,8.75,NZ,1609363583
puerto ayacucho,5.66,-67.62,77.52,88,54,5.91,VE,1609363831
saint-philippe,-21.36,55.77,77.0,78,0,26.4,RE,1609363832
hirara,24.8,125.28,55.0,83,100,29.71,JP,1609363833
provideniya,64.38,-173.3,26.6,79,75,13.42,RU,1609363834
christchurch,-43.53,172.63,61.0,63,88,12.75,NZ,1609363546
tankhoy,51.55,105.13,4.28,85,19,4.76,RU,1609363837
tuktoyaktuk,69.45,-133.04,-18.4,82,75,9.17,CA,1609363838
mount gambier,-37.83,140.77,59.0,77,90,12.75,AU,1609363839
coquimbo,-29.95,-71.34,69.8,64,0,12.75,CL,1609363840
port alfred,-33.59,26.89,68.0,91,18,2.66,ZA,1609363842
lekoni,-1.58,14.26,75.78,80,100,4.12,GA,1609363843
butaritari,3.07,172.79,81.3,76,84,23.0,KI,1609363844
punta arenas,-53.15,-70.92,55.4,58,75,18.34,CL,1609363845
jalu,29.03,21.55,55.06,45,2,7.45,LY,1609363847
ushuaia,-54.8,-68.3,55.4,47,75,3.36,AR,1609363668
aksu,41.12,80.26,13.78,93,4,3.69,CN,1609363849
cidreira,-30.18,-50.21,79.65,74,24,11.07,BR,1609363826
svetlaya,46.54,138.33,-3.95,77,99,10.6,RU,1609363852
olinda,-8.01,-34.86,75.2,83,75,12.75,BR,1609363853
nagai,38.1,140.03,26.01,66,99,5.01,JP,1609363854
pala,9.36,14.9,75.78,23,39,6.24,TD,1609363856
winnemucca,40.97,-117.74,44.6,26,1,16.11,US,1609363857
port hardy,50.7,-127.42,46.4,81,75,36.91,CA,1609363858
leningradskiy,69.38,178.42,-5.31,90,98,6.55,RU,1609363860
bredasdorp,-34.53,20.04,59.0,82,5,2.24,ZA,1609363861
vanimo,-2.67,141.3,79.72,81,86,4.0,PG,1609363862
arraial do cabo,-22.97,-42.03,80.6,65,0,17.22,BR,1609363863
linqu,36.52,118.54,16.47,57,0,8.52,CN,1609363865
sao joao da barra,-21.64,-41.05,80.6,69,0,17.22,BR,1609363866
longyearbyen,78.22,15.64,26.6,92,75,1.12,SJ,1609363867
tefe,-3.35,-64.71,84.2,70,20,4.7,BR,1609363868
isangel,-19.55,169.27,80.8,79,100,11.95,VU,1609363870
sayyan,15.17,44.32,46.47,58,9,3.06,YE,1609363871
norman wells,65.28,-126.83,-4.0,76,75,11.41,CA,1609363872
chokurdakh,70.63,147.92,-29.15,86,80,5.14,RU,1609363873
qaanaaq,77.48,-69.36,8.08,73,67,13.29,GL,1609363875
georgetown,5.41,100.34,77.0,94,20,6.53,MY,1609363876
narsaq,60.92,-46.05,26.6,58,90,3.36,GL,1609363877
qiqihar,47.34,123.97,-7.58,83,23,6.53,CN,1609363878
san antero,9.37,-75.76,81.45,78,40,10.18,CO,1609363880
sarangani,5.4,125.46,82.31,72,98,2.19,PH,1609363881
tiksi,71.69,128.87,-12.77,90,99,6.44,RU,1609363882
thompson,55.74,-97.86,6.8,92,90,2.01,CA,1609363814
nuuk,64.18,-51.72,32.0,97,90,2.24,GL,1609363885
bundaberg,-24.85,152.35,75.99,83,90,13.87,AU,1609363762
fortuna,40.6,-124.16,53.01,70,90,23.04,US,1609363887
mamallapuram,12.63,80.17,80.6,83,90,8.05,IN,1609363888
ilulissat,69.22,-51.1,30.2,54,91,13.87,GL,1609363660
nichinan,31.6,131.37,28.4,74,75,9.17,JP,1609363891
colac,-38.33,143.58,57.0,92,6,5.99,AU,1609363892
atuona,-9.8,-139.03,78.66,73,1,18.79,PF,1609363893
avera,33.19,-82.53,60.8,72,90,8.05,US,1609363894
nikolskoye,59.7,30.79,34.0,94,90,11.18,RU,1609363895
castro,-24.79,-50.01,68.88,90,59,6.29,BR,1609363897
aripuana,-9.17,-60.63,76.57,96,100,2.42,BR,1609363898
vanderhoof,54.02,-124.02,25.02,97,100,3.85,CA,1609363814
vaini,-21.2,-175.2,80.6,78,75,11.41,TO,1609363900
homer,59.64,-151.55,37.0,93,90,9.17,US,1609363902
pitimbu,-7.47,-34.81,80.6,74,0,11.41,BR,1609363903
cayenne,4.93,-52.33,80.6,88,0,4.7,GF,1609363626
mahebourg,-20.41,57.7,77.0,88,75,17.22,MU,1609363905
colinas,-6.03,-44.25,78.35,68,0,1.03,BR,1609363906
morrinhos,-17.73,-49.1,75.97,72,99,1.36,BR,1609363908
juneau,58.3,-134.42,37.4,93,75,5.82,US,1609363863
olonets,60.98,32.97,34.0,92,100,9.6,RU,1609363910
wanning,18.8,110.4,57.18,70,100,17.43,CN,1609363911
ust-maya,60.42,134.53,-36.29,81,100,1.52,RU,1609363913
cepelare,41.73,24.68,48.0,87,32,4.7,BG,1609363914
kahului,20.89,-156.47,82.4,54,20,23.04,US,1609363915
jamestown,42.1,-79.24,39.99,86,90,13.87,US,1609363742
saint-joseph,-21.37,55.62,77.0,78,0,26.4,RE,1609363917
avarua,-21.21,-159.78,82.4,78,68,8.05,CK,1609363919
new norfolk,-42.78,147.06,57.0,71,100,1.01,AU,1609363920
nadym,65.53,72.52,-19.26,88,73,5.17,RU,1609363921
cabo san lucas,22.89,-109.91,71.01,48,5,21.92,MX,1609363861
saskylakh,71.92,114.08,-25.35,83,17,9.08,RU,1609363923
san quintin,30.48,-115.95,63.81,31,0,12.5,MX,1609363925
mumford,5.26,-0.76,80.49,87,94,9.1,GH,1609363926
kruisfontein,-34.0,24.73,64.0,86,0,3.04,ZA,1609363927
boca do acre,-8.75,-67.4,86.31,63,36,1.54,BR,1609363928
haines junction,60.75,-137.51,17.55,93,97,2.08,CA,1609363930
taoudenni,22.68,-3.98,73.33,24,0,7.29,ML,1609363931
havre-saint-pierre,50.23,-63.6,8.6,71,1,10.29,CA,1609363932
gelibolu,40.41,26.67,59.0,67,0,13.87,TR,1609363933
hilo,19.73,-155.09,80.6,54,1,6.24,US,1609363935
victoria,22.29,114.16,48.99,39,2,1.99,HK,1609363936
gurupi,-11.73,-49.07,82.29,60,100,4.43,BR,1609363937
moron,-34.65,-58.62,78.8,19,0,40.26,AR,1609363938
seydi,39.48,62.91,29.48,91,0,10.65,TM,1609363939
nhulunbuy,-12.23,136.77,78.8,88,75,11.41,AU,1609363941
broken hill,-31.95,141.43,68.0,45,40,17.22,AU,1609363942
pangnirtung,66.15,-65.71,12.2,72,90,11.41,CA,1609363943
anadyr,64.75,177.48,10.4,85,75,11.18,RU,1609363944
karasburg,-28.02,18.75,72.84,32,0,13.29,NA,1609363946
shizunai,42.33,142.37,16.25,84,28,10.45,JP,1609363947
gornopravdinsk,60.05,69.9,-22.16,87,10,4.76,RU,1609363948
komsomolskiy,40.43,71.72,28.4,79,90,2.24,UZ,1609363949
vammala,61.33,22.9,36.0,93,90,12.75,FI,1609363951
nelson bay,-32.72,152.15,72.0,83,90,12.75,AU,1609363952
hudson bay,52.85,-102.38,12.63,93,45,6.78,CA,1609363953
half moon bay,37.46,-122.43,57.2,76,90,8.05,US,1609363810
siyabuswa,-25.11,29.04,76.95,58,49,9.55,ZA,1609363955
woodward,36.43,-99.39,42.8,48,1,10.29,US,1609363935
hay river,60.82,-115.8,3.2,77,100,5.82,CA,1609363958
muroto,33.28,134.15,40.75,68,0,21.77,JP,1609363707
nanortalik,60.14,-45.24,31.3,93,100,23.09,GL,1609363960
marawi,8.0,124.29,73.0,94,27,3.0,PH,1609363962
tuatapere,-46.13,167.68,58.12,79,100,1.48,NZ,1609363963
garowe,8.41,48.48,67.71,69,0,14.61,SO,1609363964
alexandria,31.22,29.96,60.8,87,40,4.7,EG,1609363965
petropavlovsk-kamchatskiy,53.05,158.65,12.2,92,90,6.71,RU,1609363857
sakakah,29.97,40.21,50.0,81,75,10.29,SA,1609363968
airai,-8.93,125.41,62.31,100,89,0.92,TL,1609363969
dwarka,22.24,68.97,65.77,48,0,18.37,IN,1609363970
ancud,-41.87,-73.82,61.0,62,75,6.93,CL,1609363971
gombong,-7.61,109.51,57.0,10,100,1.39,ID,1609363973
nioro,13.35,-15.75,75.83,45,0,5.91,GM,1609363974
tombouctou,20.0,-3.0,70.92,23,5,2.77,ML,1609363975
sola,-13.88,167.55,86.0,84,75,2.24,VU,1609363976
linxia,35.6,103.21,14.18,78,100,0.92,CN,1609363977
yakima,46.47,-120.67,33.01,91,90,0.94,US,1609363687
pizarro,4.95,-77.37,75.47,90,100,5.97,CO,1609363980
bengkulu,-3.8,102.27,75.13,84,100,4.97,ID,1609363981
touho,-20.78,165.23,81.34,81,100,9.91,NC,1609363983
nome,64.5,-165.41,18.0,72,1,4.7,US,1609363984
fare,-16.7,-151.02,81.97,77,60,16.08,PF,1609363985
chifeng,42.27,118.96,-6.43,79,0,10.18,CN,1609363986
khatanga,71.97,102.5,-28.71,81,0,4.43,RU,1609363987
awjilah,29.11,21.29,54.66,45,9,6.8,LY,1609363989
lebu,-37.62,-73.65,58.06,68,0,22.7,CL,1609363990
alyangula,-13.85,136.42,80.6,94,40,6.93,AU,1609363991
kisangani,0.52,25.2,72.72,78,5,2.21,CD,1609363992
karratha,-20.74,116.85,85.71,69,1,6.02,AU,1609363994
salalah,17.02,54.09,71.6,60,0,2.24,OM,1609363799
vengerovo,55.68,76.75,-24.36,86,100,8.97,RU,1609363996
kavaratti,10.57,72.64,81.68,77,0,8.25,IN,1609363997
katsuura,35.13,140.3,36.0,37,20,21.92,JP,1609363998
srandakan,-7.94,110.25,74.66,94,100,9.42,ID,1609364000
tokur,53.13,132.9,-39.82,81,20,2.3,RU,1609364001
talnakh,69.49,88.4,-7.6,48,0,8.95,RU,1609364002
george,-33.96,22.46,64.4,82,0,1.12,ZA,1609364003
faya,18.39,42.45,57.2,71,0,2.33,SA,1609364005
ostrovnoy,68.05,39.51,11.57,94,76,12.53,RU,1609364006
pavlodar,52.3,76.95,-7.6,69,90,8.95,KZ,1609364007
shimoda,34.67,138.95,40.3,62,0,22.3,JP,1609364008
ojinaga,29.57,-104.42,39.2,86,90,16.11,MX,1609364010
masvingo,-20.06,30.83,67.84,89,100,11.86,ZW,1609364011
ipixuna,-1.76,-48.8,82.4,78,40,8.05,BR,1609364012
shingu,33.73,135.98,30.7,93,3,6.6,JP,1609364013
torbay,47.67,-52.73,30.99,74,90,24.16,CA,1609364014
ust-tsilma,65.44,52.15,-16.24,87,34,7.34,RU,1609364016
ayan,56.45,138.17,-20.31,75,33,11.18,RU,1609364017
cherskiy,68.75,161.3,-36.62,83,100,3.49,RU,1609364018
nosy varika,-20.58,48.53,74.89,79,30,3.8,MG,1609364019
konosha,60.97,40.26,20.17,98,95,6.51,RU,1609364020
cookeville,36.16,-85.5,61.0,59,1,17.22,US,1609363427
burlington,39.88,-74.64,42.8,52,1,9.17,US,1609363984
rabo de peixe,37.8,-25.58,55.4,76,20,8.05,PT,1609363968
honiara,-9.43,159.95,75.2,100,75,5.1,SB,1609364025
suruc,36.98,38.42,44.6,54,0,6.93,TR,1609364027
beringovskiy,63.05,179.32,5.41,94,100,17.18,RU,1609364028
carnarvon,-24.87,113.63,75.2,100,38,12.75,AU,1609364029
tabou,4.42,-7.35,79.68,82,59,6.67,CI,1609364030
jawhar,2.78,45.5,75.7,80,85,14.0,SO,1609364031
khani,41.96,42.96,50.0,39,0,20.8,GE,1609364033
lompoc,34.64,-120.46,61.0,54,1,17.22,US,1609364034
jabinyanah,35.03,10.91,51.8,53,20,12.8,TN,1609364035
marshalltown,42.05,-92.91,25.0,73,90,23.04,US,1609363765
ust-koksa,50.27,85.61,5.36,88,100,2.08,RU,1609364038
araouane,18.9,-3.53,73.26,24,43,3.87,ML,1609364039
lahij,13.17,44.58,69.98,81,82,8.7,YE,1609364040
castelnaudary,43.32,1.95,39.2,93,75,3.36,FR,1609364041
los llanos de aridane,28.66,-17.92,62.6,88,75,5.82,ES,1609364043
price,39.6,-110.81,24.8,53,1,1.12,US,1609364044
shirokiy,49.76,129.52,-24.07,86,100,4.68,RU,1609364045
batemans bay,-35.72,150.18,69.01,90,100,1.28,AU,1609363807
camacha,33.08,-16.33,59.0,67,40,12.75,PT,1609364047
esperance,-33.87,121.9,60.8,87,90,13.87,AU,1609364049
rocha,-34.48,-54.33,74.86,51,98,6.46,UY,1609364050
punalur,9.0,76.93,82.4,88,20,1.12,IN,1609364051
hualmay,-11.1,-77.61,72.05,75,58,7.11,PE,1609363883
kenai,60.55,-151.26,30.99,86,90,9.17,US,1609363829
hamilton,39.18,-84.53,51.01,93,90,6.93,US,1609363814
cabedelo,-6.98,-34.83,80.6,74,0,11.41,BR,1609364056
xiongyue,40.18,122.12,11.95,80,4,11.03,CN,1609364057
tromso,69.65,18.96,30.2,86,0,14.99,NO,1609364059
vestmannaeyjar,63.44,-20.27,32.95,84,0,11.9,IS,1609364060
lata,40.16,-8.33,48.0,100,40,4.7,PT,1609364061
rognan,67.1,15.39,35.6,59,0,19.46,NO,1609364062
yerbogachen,61.28,108.01,-24.57,86,97,3.96,RU,1609364063
saint-pierre,-21.34,55.48,77.0,78,0,26.4,RE,1609363921
fatehpur,25.93,80.8,48.9,50,0,6.62,IN,1609364066
west bay,19.37,-81.42,82.4,69,75,13.87,KY,1609364067
zhezkazgan,47.8,67.71,-2.63,94,60,1.01,KZ,1609364068
baruun-urt,46.68,113.28,-11.36,83,0,10.42,MN,1609364070
portland,45.52,-122.68,45.0,93,90,10.29,US,1609363213
mar del plata,-38.0,-57.56,68.0,49,75,17.22,AR,1609364072
kemise,10.72,39.87,61.14,74,13,0.78,ET,1609364073
nizhnyaya tura,58.63,59.81,-9.9,90,100,2.33,RU,1609364074
pervoye maya,56.16,44.72,21.0,85,90,4.47,RU,1609364076
amazar,53.86,120.88,-13.9,79,63,5.82,RU,1609364077
khash,28.22,61.22,35.98,60,1,4.88,IR,1609364078
juba,4.85,31.58,81.73,34,34,2.48,SS,1609364079
san patricio,28.02,-97.52,78.8,65,75,25.28,US,1609364081
klaksvik,62.23,-6.59,37.4,86,99,23.04,FO,1609364082
maholi,27.67,80.47,47.14,54,0,6.31,IN,1609364083
bambous virieux,-20.34,57.76,77.0,88,75,17.22,MU,1609364084
kununurra,-15.77,128.73,77.0,100,99,4.7,AU,1609364086
montes altos,-5.83,-47.07,87.8,70,75,4.7,BR,1609364087
rio gallegos,-51.62,-69.22,60.8,38,40,16.11,AR,1609363888
sorland,67.67,12.69,24.8,85,20,5.82,NO,1609364089
meulaboh,4.14,96.13,76.05,90,99,5.61,ID,1609364090
vostok,46.49,135.88,-16.89,85,100,4.65,RU,1609364092
carballo,43.21,-8.69,46.0,94,60,1.01,ES,1609364093
turbana,10.27,-75.44,87.8,58,40,13.87,CO,1609364094
san pedro,14.35,121.02,79.0,69,75,8.05,PH,1609364095
codrington,-38.27,141.97,58.71,72,54,16.35,AU,1609364097
harer,9.31,42.13,57.29,79,19,1.48,ET,1609364098
mwingi,-0.93,38.06,65.35,94,68,0.31,KE,1609364099
westport,41.14,-73.36,39.2,64,1,13.87,US,1609363972
burns lake,54.23,-125.75,23.0,92,100,3.36,CA,1609364101
port macquarie,-31.43,152.92,73.0,85,14,1.99,AU,1609364103
sur,22.57,59.53,66.54,52,0,5.21,OM,1609364104
bayir,37.27,28.22,53.6,87,75,4.7,TR,1609364105
jiwani,25.05,61.74,64.13,33,20,12.59,PK,1609364106
olenino,56.21,33.49,32.65,96,100,11.05,RU,1609364108
flin flon,54.77,-101.86,6.8,84,75,4.7,CA,1609364109
kastamonu,41.5,33.67,37.33,80,0,0.63,TR,1609364110
espera feliz,-20.65,-41.91,69.75,91,61,3.91,BR,1609364111
huarmey,-10.07,-78.15,72.73,74,42,9.15,PE,1609364113
yar-sale,66.83,70.83,-16.22,89,94,5.55,RU,1609364114
slave lake,55.28,-114.77,14.0,78,1,4.7,CA,1609364115
yendi,9.44,-0.01,79.65,18,29,4.16,GH,1609364116
sabang,5.89,95.32,81.52,77,98,14.97,ID,1609364118
caloundra,-26.8,153.13,73.99,92,43,1.99,AU,1609364119
inongo,-1.95,18.27,73.99,89,100,3.2,CD,1609364120
bethel,41.37,-73.41,34.0,43,1,6.93,US,1609363972
baykit,61.67,96.37,-23.91,77,5,2.91,RU,1609364123
clarence town,-32.58,151.78,72.0,83,90,12.75,AU,1609364124
shetpe,44.17,52.12,28.72,88,0,11.32,KZ,1609364125
mezen,65.85,44.24,6.08,94,98,8.28,RU,1609364126
faanui,-16.48,-151.75,81.28,78,88,18.12,PF,1609364128
pabianice,51.66,19.35,36.0,100,90,3.36,PL,1609364129
te anau,-45.42,167.72,57.02,84,85,0.63,NZ,1609364130
nemuro,43.32,145.57,18.82,89,85,19.69,JP,1609364131
singaraja,-8.11,115.09,78.31,69,95,3.06,ID,1609364133
belgrade,44.8,20.47,44.6,100,0,5.82,RS,1609364134
pacific grove,36.62,-121.92,57.0,66,1,8.05,US,1609363877
lakes entrance,-37.88,147.98,66.0,87,100,1.01,AU,1609364136
fukuma,33.77,130.47,33.8,55,75,16.11,JP,1609364137
valer,60.68,11.83,32.0,97,75,5.82,NO,1609364139
elk city,35.41,-99.4,41.0,41,1,12.75,US,1609364140
beruwala,6.48,79.98,76.33,88,30,4.07,LK,1609364056
walvis bay,-22.96,14.51,64.99,77,100,3.36,NA,1609364143
kollegal,12.15,77.12,68.34,90,32,3.24,IN,1609364144
kizema,61.11,44.83,5.99,95,95,4.97,RU,1609364145
port blair,11.67,92.75,79.9,75,69,11.65,IN,1609364146
tiznit,29.58,-9.5,54.95,68,19,1.63,MA,1609364147
nileshwar,12.25,75.1,77.0,94,20,2.24,IN,1609364149
northam,51.03,-4.22,39.99,85,88,5.01,GB,1609364150
sao filipe,14.9,-24.5,74.97,77,32,7.72,CV,1609364151
hofn,64.25,-15.21,26.69,84,0,12.82,IS,1609364153
los alamos,35.89,-106.31,32.0,73,1,9.17,US,1609364154
luderitz,-26.65,15.16,64.4,77,1,19.46,NA,1609364155
adre,13.47,22.2,69.1,26,2,9.13,TD,1609364156
kudahuvadhoo,2.67,72.89,81.91,76,54,7.34,MV,1609364157
fort saint james,54.43,-124.25,22.59,96,100,1.79,CA,1609364159
naryan-mar,67.67,53.09,-21.01,84,0,9.57,RU,1609364160
viedma,-40.81,-63.0,68.0,35,0,5.01,AR,1609364146
sume,-7.67,-36.88,79.05,58,75,14.76,BR,1609364162
yoichi,43.2,140.77,3.0,84,75,3.36,JP,1609364164
port elizabeth,-33.92,25.57,64.4,88,0,6.93,ZA,1609364165
phan thiet,10.93,108.1,70.45,83,100,5.57,VN,1609364166
thongwa,16.76,96.53,71.6,78,18,3.36,MM,1609364167
pangody,65.85,74.49,-17.0,88,90,7.18,RU,1609364169
jasper,37.2,-94.35,35.6,80,75,9.51,US,1609364170
atlantic beach,30.33,-81.4,71.6,77,40,4.7,US,1609364171
xiamen,24.48,118.08,44.6,42,0,6.71,CN,1609364173
moose jaw,50.4,-105.53,19.4,73,48,6.93,CA,1609364174
maragogi,-9.01,-35.22,78.01,81,20,10.78,BR,1609363920
baie-comeau,49.22,-68.15,15.8,72,90,2.24,CA,1609364177
sorrento,40.63,14.37,50.0,81,40,5.82,IT,1609364178
quatre cocos,-20.21,57.76,77.0,88,75,17.22,MU,1609364179
kavieng,-2.57,150.8,82.69,72,100,3.56,PG,1609364180
nouadhibou,20.93,-17.03,64.4,77,0,12.75,MR,1609364182
dom pedrito,-30.98,-54.67,81.66,53,67,11.16,BR,1609364064
opuwo,-18.06,13.84,71.13,60,100,6.93,NA,1609364184
verkhoyansk,67.54,133.38,-19.26,86,99,0.45,RU,1609364185
jos,9.92,8.9,64.89,34,61,4.56,NG,1609364187
chimoio,-19.12,33.48,71.6,100,75,3.62,MZ,1609364007
clyde river,70.47,-68.59,-11.2,83,75,3.36,CA,1609364189
naze,28.37,129.48,51.8,76,75,21.92,JP,1609364190
yuncheng,35.02,110.99,13.41,59,46,1.07,CN,1609364192
badlapur,19.15,73.27,73.4,73,89,2.66,IN,1609364193
caravelas,-17.71,-39.25,76.39,81,0,7.65,BR,1609364194
masuguru,-11.37,38.42,73.4,93,98,1.14,TZ,1609364195
show low,34.25,-110.03,37.0,47,1,14.99,US,1609364197
ayr,55.46,-4.63,39.2,80,75,12.75,GB,1609364198
paamiut,61.99,-49.67,33.73,84,100,5.91,GL,1609364199
saint george,37.1,-113.58,48.0,26,1,3.36,US,1609364123
ginda,30.69,78.49,38.03,37,0,7.83,IN,1609364202
roros,62.57,11.38,21.2,92,98,3.36,NO,1609364203
cedar city,37.68,-113.06,28.4,50,1,2.77,US,1609364204
ocampo,21.65,-101.5,63.36,28,0,27.02,MX,1609364205
kez,57.9,53.72,0.34,93,100,4.47,RU,1609364206
victor harbor,-35.57,138.62,59.0,91,40,3.0,AU,1609364208
shache,38.42,77.24,16.39,93,0,3.02,CN,1609364209
pudem,58.3,52.17,4.08,94,100,4.47,RU,1609364210
palmer,42.16,-72.33,36.0,55,75,9.17,US,1609364211
karwar,14.8,74.13,77.77,68,1,6.6,IN,1609364213
zheleznodorozhnyy,55.75,38.0,25.0,100,90,13.42,RU,1609364006
princeton,25.54,-80.41,77.0,61,90,12.75,US,1609364215
gao,16.64,1.64,72.64,20,1,10.09,ML,1609364216
zhangye,38.93,100.45,10.76,74,37,6.58,CN,1609364218
antofagasta,-23.65,-70.4,75.99,77,40,17.22,CL,1609364219
ambilobe,-13.2,49.05,72.93,92,91,2.19,MG,1609364220
dalaba,10.7,-12.25,67.64,37,0,3.27,GN,1609364221
waitati,-45.75,170.57,61.7,74,99,8.72,NZ,1609364223
ola,59.58,151.28,-9.51,82,100,17.98,RU,1609364224
port lincoln,-34.73,135.87,62.44,79,64,17.94,AU,1609364225
santa rosa,14.31,121.11,79.0,69,75,8.05,PH,1609364226
mana,5.66,-53.78,78.22,86,95,5.19,GF,1609364228
linhares,-19.39,-40.07,73.81,85,2,5.79,BR,1609364229
shenzhen,22.55,114.07,46.0,42,0,1.01,CN,1609364199
evensk,61.95,159.23,-6.84,83,52,15.28,RU,1609364231
sturgis,41.8,-85.42,33.8,96,90,12.75,US,1609364233
albury,-36.08,146.92,71.01,72,40,3.36,AU,1609364220
rawson,-43.3,-65.1,61.61,47,32,10.98,AR,1609364235
coihaique,-45.58,-72.07,55.4,54,75,14.99,CL,1609364236
susehri,40.16,38.09,36.37,73,0,2.8,TR,1609364237
malinovskiy,61.2,62.84,-25.29,85,0,3.71,RU,1609364239
yairipok,24.67,94.07,48.13,89,0,0.87,IN,1609364240
iqaluit,63.75,-68.51,6.8,65,75,4.7,CA,1609364153
muana,-1.53,-49.22,78.04,86,100,4.76,BR,1609364242
hobyo,5.35,48.53,76.1,75,24,21.81,SO,1609364244
kulhudhuffushi,6.62,73.07,82.04,77,52,11.12,MV,1609364245
penzance,50.12,-5.54,41.0,93,68,13.87,GB,1609363984
gorele,41.03,39.0,50.0,53,0,2.24,TR,1609364247
egvekinot,66.32,-179.17,-1.25,93,100,14.38,RU,1609364249
coihueco,-36.62,-71.83,77.0,23,0,17.22,CL,1609364119
mehamn,71.04,27.85,28.4,63,0,12.75,NO,1609364251
tura,25.52,90.22,56.91,59,0,3.74,IN,1609364110
bereda,43.27,-7.54,46.0,100,99,10.0,ES,1609364253
tianpeng,30.99,103.94,41.0,1,91,1.88,CN,1609364255
conceicao do araguaia,-8.26,-49.26,81.72,68,100,2.51,BR,1609364256
karoi,-16.81,29.69,65.7,86,100,4.52,ZW,1609364257
luangwa,-15.62,30.42,75.96,75,100,1.86,ZM,1609364258
kemijarvi,66.71,27.43,20.25,97,100,7.43,FI,1609364260
benidorm,38.54,-0.13,50.0,45,1,5.99,ES,1609364064
beni,0.5,29.47,66.09,82,100,2.01,CD,1609364262
moose factory,51.26,-80.61,21.2,85,90,4.7,CA,1609364263
sokolo,14.73,-6.12,78.93,22,22,8.86,ML,1609364264
kurgan,55.45,65.33,-18.02,88,25,1.28,RU,1609364112
togur,58.36,82.83,1.62,94,96,5.32,RU,1609364267
williams lake,52.14,-122.14,28.4,92,90,14.99,CA,1609364087
udachnyy,66.42,112.4,-11.2,76,0,4.47,RU,1609364269
vardo,70.37,31.11,28.4,79,75,16.11,NO,1609364271
koryazhma,61.31,47.17,4.44,94,89,4.5,RU,1609364089
kampot,10.62,104.18,78.8,54,20,12.75,KH,1609364273
dubti,11.74,41.09,71.13,56,0,8.9,ET,1609364274
ixtapa,20.7,-105.2,73.4,69,75,11.41,MX,1609364275
rio tercero,-32.17,-64.11,75.99,33,0,1.99,AR,1609364277
lodja,-3.48,23.43,70.12,95,100,1.21,CD,1609364278
labuhan,-6.88,112.21,76.28,89,100,8.32,ID,1609364279
santarem,-2.44,-54.71,80.6,83,20,3.36,BR,1609364280
kaithal,29.8,76.38,44.28,66,1,4.92,IN,1609364282
west lorne,42.6,-81.6,41.0,93,100,24.16,CA,1609364283
mbini,1.57,9.61,80.6,94,40,6.08,GQ,1609364284
bowmore,34.94,-79.3,44.6,81,90,4.7,US,1609364285
atambua,-9.11,124.89,75.63,87,59,1.9,ID,1609364287
quipile,4.75,-74.56,59.0,77,75,6.93,CO,1609364288
staryy nadym,65.61,72.68,-18.54,88,72,5.23,RU,1609364289
stokmarknes,68.56,14.91,33.8,74,0,8.05,NO,1609364044
benguela,-12.58,13.41,76.14,80,100,4.9,AO,1609364134
ushtobe,45.25,77.98,6.98,96,100,3.51,KZ,1609364293
kathu,7.92,98.33,84.0,94,20,2.24,TH,1609364294
timra,62.49,17.33,33.01,98,100,5.82,SE,1609364295
kiama,-34.68,150.87,68.0,88,100,1.01,AU,1609364230
ereymentau,51.62,73.1,-16.46,89,97,12.06,KZ,1609364298
taltal,-25.4,-70.48,70.77,56,22,4.65,CL,1609364299
ler,8.3,30.14,77.76,30,0,4.47,SS,1609364300
lieksa,63.32,30.02,34.61,89,100,15.41,FI,1609364301
deputatskiy,69.3,139.9,-23.91,88,26,4.18,RU,1609364303
alice springs,-23.7,133.88,64.4,63,0,2.24,AU,1609364304
ambon,-3.7,128.18,79.0,14,98,5.61,ID,1609364305
beloha,-25.17,45.05,78.4,51,0,10.76,MG,1609364306
mitha tiwana,32.25,72.11,48.61,40,0,1.43,PK,1609364307
oshkosh,44.02,-88.54,27.0,68,90,16.11,US,1609364284
atasu,48.68,71.64,-4.68,92,100,3.47,KZ,1609364310
olafsvik,64.89,-23.71,32.18,91,6,7.45,IS,1609364311
syracuse,37.09,15.28,51.01,93,0,8.05,IT,1609364312
havre,49.58,0.33,39.2,93,90,6.93,FR,1609364313
inhambane,-23.86,35.38,81.28,85,49,9.66,MZ,1609364315
aitape,-3.14,142.35,79.3,76,83,4.65,PG,1609364316
matara,5.95,80.54,75.56,87,36,9.48,LK,1609364317
skjervoy,70.03,20.97,34.43,86,81,19.82,NO,1609364318
hanzhong,33.07,107.03,26.76,77,17,1.79,CN,1609364320
kampong cham,11.99,105.46,71.26,61,77,13.04,KH,1609364321
dakar,14.69,-17.44,69.8,94,0,13.87,SN,1609364314
bhatapara,21.73,81.93,60.08,65,36,3.89,IN,1609364323
chapais,49.78,-74.85,12.2,92,90,9.17,CA,1609364324
kenora,49.82,-94.43,10.4,85,75,6.93,CA,1609364326
camana,-16.62,-72.71,72.64,72,89,5.5,PE,1609364327
nalut,30.33,10.85,49.69,45,0,8.03,LY,1609364328
tranas,58.04,14.98,34.0,100,81,2.24,SE,1609364330
samana,19.21,-69.34,82.4,78,40,6.93,DO,1609364331
saint-augustin,51.23,-58.65,11.07,85,68,17.56,CA,1609364332
sinnamary,5.38,-52.95,79.03,83,100,5.59,GF,1609364333
balkhash,46.84,74.98,1.26,90,0,5.41,KZ,1609364335
kingori,-3.28,36.98,64.63,87,100,4.14,TZ,1609364336
mao,39.89,4.27,48.2,66,20,4.7,ES,1609364166
lokoja,7.8,6.74,82.29,27,17,2.57,NG,1609364338
coahuayana,18.73,-103.68,73.4,56,20,6.17,MX,1609364339
lewiston,44.1,-70.21,30.99,46,75,6.93,US,1609364341
kaitangata,-46.28,169.85,61.0,83,91,8.99,NZ,1609364342
sahaspur,29.13,78.62,46.63,65,0,6.35,IN,1609364124
taicheng,38.73,113.23,0.84,71,0,3.76,CN,1609364344
mackenzie,55.3,-123.17,23.0,85,90,6.93,CA,1609364346
moree,-29.47,149.85,75.2,60,6,12.75,AU,1609364347
tautira,-17.73,-149.15,86.0,66,40,9.17,PF,1609364348
aketi,2.74,23.78,74.39,67,75,2.42,CD,1609364349
sioux lookout,50.1,-91.92,14.0,85,90,12.75,CA,1609364351
saint pete beach,27.73,-82.74,75.0,18,14,1.01,US,1609364352
kieta,-6.22,155.63,82.42,73,100,3.49,PG,1609364353
lampang,18.33,99.5,63.93,84,5,3.02,TH,1609364354
shorewood,41.52,-88.2,30.99,80,90,18.34,US,1609364356
praia,14.92,-23.51,73.4,83,75,23.04,CV,1609364357
rancho palos verdes,33.74,-118.39,66.99,22,20,8.05,US,1609364358
darhan,49.49,105.92,-14.98,79,0,3.49,MN,1609364359
pudozh,61.81,36.53,29.64,98,100,7.99,RU,1609364360
kalemie,-5.95,29.19,70.21,84,95,5.75,CD,1609364362
dali,25.7,100.18,39.88,72,25,2.89,CN,1609364363
mandali,33.75,45.55,55.67,42,0,3.87,IQ,1609364364
emerald,-23.53,148.17,73.4,83,90,12.75,AU,1609364236
contai,21.78,87.75,61.43,52,5,6.73,IN,1609364367
bilibino,68.05,166.44,-30.05,81,100,2.77,RU,1609364368
knysna,-34.04,23.05,64.4,82,0,1.12,ZA,1609364369
chandpur,29.15,78.27,46.47,64,0,6.6,IN,1609364370
coari,-4.08,-63.14,75.88,85,96,3.49,BR,1609364371
conde,-7.26,-34.91,80.6,74,0,11.41,BR,1609364373
umm lajj,25.02,37.27,73.36,69,0,8.41,SA,1609364374
soyo,-6.13,12.37,78.84,89,100,8.01,AO,1609364375
whitecourt,54.15,-115.69,23.0,57,40,2.53,CA,1609364376
la macarena,2.18,-73.78,86.09,58,15,3.24,CO,1609364378
muros,42.78,-9.06,51.01,95,48,14.29,ES,1609364379
banda aceh,5.56,95.32,77.27,81,65,11.83,ID,1609364380
hong gai,20.96,107.09,55.4,54,0,9.17,VN,1609364381
winneba,5.35,-0.62,82.4,88,20,5.82,GH,1609364383
iberia,29.95,-91.75,73.4,78,90,19.46,US,1609364384
pisco,-13.7,-76.22,71.01,83,40,8.05,PE,1609364385
sept-iles,50.2,-66.38,12.2,72,59,6.93,CA,1609364370
dicabisagan,17.08,122.42,72.21,87,100,19.37,PH,1609364387
sidrolandia,-20.93,-54.96,77.0,73,75,3.36,BR,1609364389
massaguet,12.48,15.44,73.4,38,0,3.36,TD,1609364390
henties bay,-22.12,14.28,64.99,85,100,6.91,NA,1609364391
tshikapa,-6.42,20.8,70.84,91,100,1.32,CD,1609364236
bonavista,48.65,-53.11,26.6,73,41,9.17,CA,1609364394
batagay,67.63,134.63,-24.68,85,100,0.72,RU,1609364395
havoysund,71.0,24.66,32.0,94,0,26.4,NO,1609364396
cairns,-16.92,145.77,78.8,88,100,4.07,AU,1609364164
havelock,34.88,-76.9,60.8,67,1,8.05,US,1609364399
juegang,32.32,121.19,19.0,61,0,1.01,CN,1609364400
dunmore town,25.5,-76.65,74.68,76,2,24.96,BS,1609364401
etchoropo,26.77,-109.67,69.01,35,0,11.01,MX,1609364404
fairbanks,64.84,-147.72,12.0,83,75,3.44,US,1609364194
sibu,2.3,111.82,75.2,94,40,3.36,MY,1609364407
sumbe,-11.21,13.84,77.58,83,100,5.59,AO,1609364408
turkistan,43.0,68.0,18.93,94,0,2.06,KZ,1609364409
sarmanovo,55.26,52.59,12.2,92,75,6.71,RU,1609364411
uvat,59.14,68.9,-23.71,86,14,5.03,RU,1609364412
guane,22.2,-84.09,76.32,70,11,12.5,CU,1609364413
richards bay,-28.78,32.04,73.76,86,73,4.97,ZA,1609364414
shieli,44.17,66.75,16.93,95,0,5.97,KZ,1609364415
miandrivazo,-19.52,45.47,75.88,83,17,0.78,MG,1609364417
lorengau,-2.02,147.27,83.75,65,100,3.22,PG,1609364418
la ronge,55.1,-105.28,10.4,85,100,1.19,CA,1609364419
chauk,20.88,94.82,62.42,64,0,3.29,MM,1609364420
kankon,15.02,74.02,77.83,66,3,5.97,IN,1609364422
bakel,14.9,-12.46,85.37,21,7,9.35,SN,1609364423
mackay,-21.15,149.2,75.2,88,90,11.41,AU,1609364424
palmas bellas,9.23,-80.09,81.0,80,28,8.99,PA,1609364425
saint-esteve,42.71,2.84,46.99,73,0,10.29,FR,1609364209
fontem,5.47,9.88,71.28,63,14,1.43,CM,1609364428
mombaca,-5.74,-39.63,86.77,36,64,2.48,BR,1609364429
miram shah,33.01,70.07,42.12,46,0,4.0,PK,1609364430
necochea,-38.55,-58.74,61.0,77,44,30.31,AR,1609364432
vyborg,60.71,28.75,36.0,91,99,7.96,RU,1609364433
buala,-8.14,159.59,83.1,75,100,7.34,SB,1609364434
nortelandia,-14.45,-56.8,82.85,69,97,4.07,BR,1609364435
mont-dore,-22.28,166.58,82.99,99,100,12.95,NC,1609364436
kloulklubed,7.04,134.26,75.2,100,90,5.82,PW,1609364438
adrar,20.5,-10.07,73.74,33,2,6.98,MR,1609364439
catalina,32.51,-110.92,59.0,26,0,4.0,US,1609364440
nantucket,41.28,-70.1,41.0,65,20,19.46,US,1609364242
yanaul,56.27,54.93,3.7,94,100,5.79,RU,1609364442
birao,10.28,22.79,76.66,26,78,5.46,CF,1609364444
kromy,52.69,35.77,34.41,95,100,13.82,RU,1609364445
krasnogorskoye,52.3,86.2,10.04,95,100,2.86,RU,1609364446
kichera,55.94,110.1,-13.07,75,0,8.05,RU,1609364447
alta floresta,-9.88,-56.09,75.2,88,40,5.82,BR,1609364373
kandalaksha,67.16,32.41,21.99,25,100,5.06,RU,1609364450
bandarbeyla,9.49,50.81,73.74,71,22,17.78,SO,1609364451
camalu,30.85,-116.07,64.99,21,0,11.01,MX,1609364452
sangar,63.92,127.47,-21.32,82,81,3.56,RU,1609364454
kotlas,61.26,46.66,4.87,94,85,4.47,RU,1609364455
sibolga,1.74,98.78,75.25,87,100,1.25,ID,1609364350
swan hill,-35.34,143.55,67.87,55,95,12.41,AU,1609364457
mandan,46.83,-100.89,23.0,92,1,9.17,US,1609364164
comodoro rivadavia,-45.87,-67.5,62.6,48,0,14.99,AR,1609364460
guerrero negro,27.98,-114.06,66.25,30,0,24.43,MX,1609364461
bichura,50.59,107.6,-13.88,78,0,3.29,RU,1609364462
gondanglegi,-7.75,112.01,74.32,90,100,1.52,ID,1609364463
waco,31.55,-97.15,48.2,87,90,20.8,US,1609364397
kapuskasing,49.42,-82.43,23.0,92,100,1.12,CA,1609364466
eirunepe,-6.66,-69.87,80.38,87,89,2.8,BR,1609364452
sitka,57.05,-135.33,39.2,93,40,5.14,US,1609364468
petauke,-14.24,31.33,68.22,90,100,3.33,ZM,1609364470
general roca,-39.03,-67.58,77.0,29,0,12.75,AR,1609364471
fenoarivo atsinanana,-17.37,49.42,75.61,86,66,9.24,MG,1609364472
naantali,60.47,22.02,39.99,93,90,4.7,FI,1609364473
fonte boa,-2.5,-66.27,81.0,78,31,2.71,BR,1609364475
tahe,52.33,124.73,-19.23,79,72,8.46,CN,1609364476
limbang,4.75,115.0,77.0,100,75,2.24,MY,1609364477
basoko,1.24,23.62,73.13,88,44,3.11,CD,1609364478
sulangan,11.14,123.72,82.56,79,97,16.17,PH,1609364479
matay,28.42,30.78,53.78,61,47,6.42,EG,1609364481
mocuba,-16.84,36.99,74.89,91,100,4.18,MZ,1609364482
poum,-20.23,164.02,81.16,84,100,14.85,NC,1609364483
yumen,40.28,97.2,14.02,80,100,14.2,CN,1609364484
klyuchi,52.27,79.17,-10.55,90,100,7.96,RU,1609364486
calvinia,-31.47,19.78,54.93,69,0,3.58,ZA,1609364487
lagunas,-5.23,-75.68,84.02,73,62,2.93,PE,1609364488
saldanha,-33.01,17.94,62.6,77,0,4.7,ZA,1609364489
laguna,38.42,-121.42,57.99,58,5,8.05,US,1609364491
san cristobal,7.77,-72.22,80.6,61,40,8.05,VE,1609364492
saru dornei,47.28,25.35,32.0,85,1,5.86,RO,1609364493
bud,39.45,-86.18,42.8,100,90,11.41,US,1609364494
shwebo,22.57,95.7,58.17,80,0,3.49,MM,1609364495
rawah,34.48,41.91,51.06,45,0,3.6,IQ,1609364497
langsa,4.47,97.97,73.6,84,84,2.13,ID,1609364498
binzhou,37.37,118.02,12.18,63,0,10.33,CN,1609364499
ust-kuyga,70.02,135.6,-18.99,86,98,1.66,RU,1609364500
touros,-5.2,-35.46,80.6,78,20,11.41,BR,1609364502
corowa,-36.03,146.38,69.01,71,100,10.25,AU,1609364503
port-gentil,-0.72,8.78,80.6,88,75,8.05,GA,1609364504
benghazi,32.12,20.07,61.02,53,0,15.5,LY,1609364505
leh,34.17,77.58,-3.28,52,0,1.7,IN,1609364506
wajima,37.4,136.9,30.92,93,100,21.14,JP,1609364508
hermiston,45.84,-119.29,41.0,86,90,12.75,US,1609364509
fukue,32.69,128.84,38.79,77,100,29.19,JP,1609364510
jacqueville,5.21,-4.41,82.4,88,0,5.82,CI,1609364511
sal rei,16.18,-22.92,71.6,78,75,14.99,CV,1609364513
gorontalo,0.54,123.06,74.59,86,63,2.82,ID,1609364514
chekhov,55.14,37.47,25.0,92,90,13.42,RU,1609364515
pambuhan,13.97,123.08,78.17,87,100,20.22,PH,1609364516
mega,4.05,38.3,61.99,82,1,7.94,ET,1609364518
piqua,40.14,-84.24,48.99,90,100,1.99,US,1609364519
marsh harbour,26.54,-77.06,72.91,73,49,22.57,BS,1609364520
mareeba,-17.0,145.43,78.8,88,100,1.72,AU,1609364319
santiago del estero,-27.8,-64.26,75.99,43,67,7.0,AR,1609364522
culebra,18.3,-65.3,80.6,57,40,18.34,PR,1609364524
lagoa,39.05,-27.98,58.8,76,100,18.37,PT,1609364525
korla,41.76,86.15,14.79,84,0,3.85,CN,1609364526
san policarpo,12.18,125.51,81.07,83,99,8.43,PH,1609364527
cuamba,-14.8,36.54,71.64,95,100,2.17,MZ,1609364529
wangaratta,-36.37,146.33,69.8,60,40,4.7,AU,1609364530
miguel hidalgo,19.42,-99.2,69.8,30,5,13.87,MX,1609364531
puerto escondido,15.85,-97.07,84.2,70,20,9.17,MX,1609364532
